[{"rating": 4.0, "review_count": 124, "name": "Clover Food Lab - DTX", "transactions": [], "url": "https://www.yelp.com/biz/clover-food-lab-dtx-boston?adjust_creative=3-P7Vz57L7f4_vIJv5mr6Q&utm_campaign=yelp_api_v3&utm_medium=api_v3_business_search&utm_source=3-P7Vz57L7f4_vIJv5mr6Q", "price": "$", "distance": 1489.6594996919998, "coordinates": {"latitude": 42.3577439, "longitude": -71.0590258}, "phone": "+16175555555", "image_url": "https://s3-media4.fl.yelpcdn.com/bphoto/K-BR230b_nPbVkOApyvoHg/o.jpg", "categories": [{"alias": "coffee", "title": "Coffee & Tea"}, {"alias": "vegetarian", "title": "Vegetarian"}, {"alias": "tradamerican", "title": "American (Traditional)"}], "display_phone": "(617) 555-5555", "id": "clover-food-lab-dtx-boston", "is_closed": false, "location": {"city": "Boston", "display_address": ["27 School St", "Boston, MA 02108"], "country": "US", "address2": "", "address3": "", "state": "MA", "address1": "27 School St", "zip_code": "02108"}}, {"rating": 4.5, "review_count": 137, "name": "Cornish Pasty", "transactions": [], "url": "https://www.yelp.com/biz/cornish-pasty-boston-3?adjust_creative=3-P7Vz57L7f4_vIJv5mr6Q&utm_campaign=yelp_api_v3&utm_medium=api_v3_business_search&utm_source=3-P7Vz57L7f4_vIJv5mr6Q", "price": "$$", "distance": 1489.850850218, "coordinates": {"latitude": 42.349712092998, "longitude": -71.0891945599281}, "phone": "+18572504497", "image_url": "https://s3-media4.fl.yelpcdn.com/bphoto/ctcCOzvqC0_qSZlOytk3lg/o.jpg", "categories": [{"alias": "british", "title": "British"}, {"alias": "vegan", "title": "Vegan"}, {"alias": "vegetarian", "title": "Vegetarian"}], "display_phone": "(857) 250-4497", "id": "cornish-pasty-boston-3", "is_closed": false, "location": {"city": "Boston", "display_address": ["51 Massachusetts Ave", "Boston, MA 02115"], "country": "US", "address2": "", "address3": null, "state": "MA", "address1": "51 Massachusetts Ave", "zip_code": "02115"}}, {"rating": 3.5, "review_count": 621, "name": "Yard House", "transactions": [], "url": "https://www.yelp.com/biz/yard-house-boston-fenway?adjust_creative=3-P7Vz57L7f4_vIJv5mr6Q&utm_campaign=yelp_api_v3&utm_medium=api_v3_business_search&utm_source=3-P7Vz57L7f4_vIJv5mr6Q", "price": "$$", "distance": 2406.142258608, "coordinates": {"latitude": 42.3453025325918, "longitude": -71.1003178238538}, "phone": "+16172364083", "image_url": "https://s3-media1.fl.yelpcdn.com/bphoto/bxABolmkennJuT3kTbuwAA/o.jpg", "categories": [{"alias": "bars", "title": "Bars"}, {"alias": "newamerican", "title": "American (New)"}, {"alias": "vegetarian", "title": "Vegetarian"}], "display_phone": "(617) 236-4083", "id": "yard-house-boston-fenway", "is_closed": false, "location": {"city": "Boston-Fenway", "display_address": ["126 Brookline Ave", "Boston-Fenway, MA 02215"], "country": "US", "address2": "", "address3": "", "state": "MA", "address1": "126 Brookline Ave", "zip_code": "02215"}}, {"rating": 5.0, "review_count": 7, "name": "Ethiopian Cafe", "transactions": [], "url": "https://www.yelp.com/biz/ethiopian-cafe-boston?adjust_creative=3-P7Vz57L7f4_vIJv5mr6Q&utm_campaign=yelp_api_v3&utm_medium=api_v3_business_search&utm_source=3-P7Vz57L7f4_vIJv5mr6Q", "distance": 4215.753517161999, "coordinates": {"latitude": 42.3222265, "longitude": -71.1090535}, "phone": "+16173196982", "image_url": "https://s3-media3.fl.yelpcdn.com/bphoto/_Dy55XAItKqDRt2QaU9r9A/o.jpg", "categories": [{"alias": "ethiopian", "title": "Ethiopian"}, {"alias": "vegetarian", "title": "Vegetarian"}], "display_phone": "(617) 319-6982", "id": "ethiopian-cafe-boston", "is_closed": false, "location": {"city": "Boston", "display_address": ["377 Centre St", "Boston, MA 02130"], "country": "US", "address2": "", "address3": null, "state": "MA", "address1": "377 Centre St", "zip_code": "02130"}}, {"rating": 4.0, "review_count": 476, "name": "sweetgreen", "transactions": [], "url": "https://www.yelp.com/biz/sweetgreen-boston?adjust_creative=3-P7Vz57L7f4_vIJv5mr6Q&utm_campaign=yelp_api_v3&utm_medium=api_v3_business_search&utm_source=3-P7Vz57L7f4_vIJv5mr6Q", "price": "$$", "distance": 656.6841863709999, "coordinates": {"latitude": 42.3500286700385, "longitude": -71.078664958477}, "phone": "+16179363464", "image_url": "https://s3-media1.fl.yelpcdn.com/bphoto/03XMn6TiWyWTQMf_fZuh_Q/o.jpg", "categories": [{"alias": "salad", "title": "Salad"}, {"alias": "vegetarian", "title": "Vegetarian"}], "display_phone": "(617) 936-3464", "id": "sweetgreen-boston", "is_closed": false, "location": {"city": "Boston", "display_address": ["659 Boylston St", "Boston, MA 02116"], "country": "US", "address2": "", "address3": "", "state": "MA", "address1": "659 Boylston St", "zip_code": "02116"}}, {"rating": 4.5, "review_count": 122, "name": "sweetgreen", "transactions": [], "url": "https://www.yelp.com/biz/sweetgreen-boston-3?adjust_creative=3-P7Vz57L7f4_vIJv5mr6Q&utm_campaign=yelp_api_v3&utm_medium=api_v3_business_search&utm_source=3-P7Vz57L7f4_vIJv5mr6Q", "price": "$$", "distance": 1950.0981110520001, "coordinates": {"latitude": 42.3501618122571, "longitude": -71.0477234423169}, "phone": "+18572637916", "image_url": "https://s3-media2.fl.yelpcdn.com/bphoto/hTc34T7IptRkZ2V31HtGmQ/o.jpg", "categories": [{"alias": "salad", "title": "Salad"}, {"alias": "vegetarian", "title": "Vegetarian"}], "display_phone": "(857) 263-7916", "id": "sweetgreen-boston-3", "is_closed": false, "location": {"city": "Boston", "display_address": ["372 Congress St", "Boston, MA 02210"], "country": "US", "address2": "", "address3": "", "state": "MA", "address1": "372 Congress St", "zip_code": "02210"}}, {"rating": 3.5, "review_count": 158, "name": "by CHLOE. Seaport", "transactions": [], "url": "https://www.yelp.com/biz/by-chloe-seaport-boston?adjust_creative=3-P7Vz57L7f4_vIJv5mr6Q&utm_campaign=yelp_api_v3&utm_medium=api_v3_business_search&utm_source=3-P7Vz57L7f4_vIJv5mr6Q", "price": "$$", "distance": 2180.3127496459997, "coordinates": {"latitude": 42.351040143053, "longitude": -71.0450695105518}, "phone": "", "image_url": "https://s3-media3.fl.yelpcdn.com/bphoto/233TxOHPSjloj70_-uTl3w/o.jpg", "categories": [{"alias": "vegan", "title": "Vegan"}, {"alias": "vegetarian", "title": "Vegetarian"}], "display_phone": "", "id": "by-chloe-seaport-boston", "is_closed": false, "location": {"city": "Boston", "display_address": ["107 Seaport Blvd", "Boston, MA 02210"], "country": "US", "address2": null, "address3": "", "state": "MA", "address1": "107 Seaport Blvd", "zip_code": "02210"}}, {"rating": 3.5, "review_count": 84, "name": "by CHLOE. Fenway", "transactions": [], "url": "https://www.yelp.com/biz/by-chloe-fenway-boston?adjust_creative=3-P7Vz57L7f4_vIJv5mr6Q&utm_campaign=yelp_api_v3&utm_medium=api_v3_business_search&utm_source=3-P7Vz57L7f4_vIJv5mr6Q", "price": "$$", "distance": 2402.698592876, "coordinates": {"latitude": 42.3446762, "longitude": -71.1002922}, "phone": "", "image_url": "https://s3-media3.fl.yelpcdn.com/bphoto/811EQA_6Wp7anW6K_sjv2g/o.jpg", "categories": [{"alias": "vegan", "title": "Vegan"}, {"alias": "vegetarian", "title": "Vegetarian"}, {"alias": "newamerican", "title": "American (New)"}], "display_phone": "", "id": "by-chloe-fenway-boston", "is_closed": false, "location": {"city": "Boston", "display_address": ["100 Van Ness St", "Boston, MA 02215"], "country": "US", "address2": null, "address3": "", "state": "MA", "address1": "100 Van Ness St", "zip_code": "02215"}}, {"rating": 4.5, "review_count": 1229, "name": "Life Alive", "transactions": [], "url": "https://www.yelp.com/biz/life-alive-cambridge?adjust_creative=3-P7Vz57L7f4_vIJv5mr6Q&utm_campaign=yelp_api_v3&utm_medium=api_v3_business_search&utm_source=3-P7Vz57L7f4_vIJv5mr6Q", "price": "$$", "distance": 3502.759731196, "coordinates": {"latitude": 42.366593014329, "longitude": -71.105495948582}, "phone": "+16173545433", "image_url": "https://s3-media3.fl.yelpcdn.com/bphoto/FcgAKjV_Av1zxhL2pdAmOg/o.jpg", "categories": [{"alias": "vegetarian", "title": "Vegetarian"}, {"alias": "vegan", "title": "Vegan"}, {"alias": "juicebars", "title": "Juice Bars & Smoothies"}], "display_phone": "(617) 354-5433", "id": "life-alive-cambridge", "is_closed": false, "location": {"city": "Cambridge", "display_address": ["765 Mass Ave", "Cambridge, MA 02139"], "country": "US", "address2": "", "address3": "", "state": "MA", "address1": "765 Mass Ave", "zip_code": "02139"}}, {"rating": 4.0, "review_count": 60, "name": "sweetgreen", "transactions": [], "url": "https://www.yelp.com/biz/sweetgreen-boston-9?adjust_creative=3-P7Vz57L7f4_vIJv5mr6Q&utm_campaign=yelp_api_v3&utm_medium=api_v3_business_search&utm_source=3-P7Vz57L7f4_vIJv5mr6Q", "price": "$$", "distance": 2436.932956158, "coordinates": {"latitude": 42.3450074, "longitude": -71.1006495}, "phone": "+18572332673", "image_url": "https://s3-media1.fl.yelpcdn.com/bphoto/ux-y55BcToqmHWu3vdh-NA/o.jpg", "categories": [{"alias": "salad", "title": "Salad"}, {"alias": "vegetarian", "title": "Vegetarian"}], "display_phone": "(857) 233-2673", "id": "sweetgreen-boston-9", "is_closed": false, "location": {"city": "Boston", "display_address": ["132 Brookline Ave", "Boston, MA 02215"], "country": "US", "address2": null, "address3": null, "state": "MA", "address1": "132 Brookline Ave", "zip_code": "02215"}}, {"rating": 4.0, "review_count": 900, "name": "Veggie Galaxy", "transactions": ["delivery"], "url": "https://www.yelp.com/biz/veggie-galaxy-cambridge?adjust_creative=3-P7Vz57L7f4_vIJv5mr6Q&utm_campaign=yelp_api_v3&utm_medium=api_v3_business_search&utm_source=3-P7Vz57L7f4_vIJv5mr6Q", "price": "$$", "distance": 3021.394710882, "coordinates": {"latitude": 42.3636681909004, "longitude": -71.101134969724}, "phone": "+16174971513", "image_url": "https://s3-media1.fl.yelpcdn.com/bphoto/RZFrZthMjNb1DUz1ihUJKQ/o.jpg", "categories": [{"alias": "vegetarian", "title": "Vegetarian"}, {"alias": "gluten_free", "title": "Gluten-Free"}, {"alias": "bakeries", "title": "Bakeries"}], "display_phone": "(617) 497-1513", "id": "veggie-galaxy-cambridge", "is_closed": false, "location": {"city": "Cambridge", "display_address": ["450 Massachusetts Ave", "Cambridge, MA 02139"], "country": "US", "address2": "", "address3": "", "state": "MA", "address1": "450 Massachusetts Ave", "zip_code": "02139"}}, {"rating": 4.5, "review_count": 364, "name": "True Bistro", "transactions": [], "url": "https://www.yelp.com/biz/true-bistro-somerville-3?adjust_creative=3-P7Vz57L7f4_vIJv5mr6Q&utm_campaign=yelp_api_v3&utm_medium=api_v3_business_search&utm_source=3-P7Vz57L7f4_vIJv5mr6Q", "price": "$$", "distance": 7713.517856998001, "coordinates": {"latitude": 42.40344, "longitude": -71.12723}, "phone": "+16176279000", "image_url": "https://s3-media3.fl.yelpcdn.com/bphoto/yEyx8HNCKxpd_y66DKSB2w/o.jpg", "categories": [{"alias": "vegetarian", "title": "Vegetarian"}, {"alias": "desserts", "title": "Desserts"}, {"alias": "breakfast_brunch", "title": "Breakfast & Brunch"}], "display_phone": "(617) 627-9000", "id": "true-bistro-somerville-3", "is_closed": false, "location": {"city": "Somerville", "display_address": ["1153 Broadway", "Somerville, MA 02144"], "country": "US", "address2": "", "address3": "", "state": "MA", "address1": "1153 Broadway", "zip_code": "02144"}}, {"rating": 4.0, "review_count": 205, "name": "Kolbeh of Kabob", "transactions": [], "url": "https://www.yelp.com/biz/kolbeh-of-kabob-cambridge?adjust_creative=3-P7Vz57L7f4_vIJv5mr6Q&utm_campaign=yelp_api_v3&utm_medium=api_v3_business_search&utm_source=3-P7Vz57L7f4_vIJv5mr6Q", "price": "$$", "distance": 4004.6002233960003, "coordinates": {"latitude": 42.3740272521973, "longitude": -71.1046524047852}, "phone": "+16178769400", "image_url": "https://s3-media1.fl.yelpcdn.com/bphoto/JHmrZOv4UbhH0Ju0581rdQ/o.jpg", "categories": [{"alias": "persian", "title": "Persian/Iranian"}, {"alias": "seafood", "title": "Seafood"}, {"alias": "vegetarian", "title": "Vegetarian"}], "display_phone": "(617) 876-9400", "id": "kolbeh-of-kabob-cambridge", "is_closed": false, "location": {"city": "Cambridge", "display_address": ["1500 Cambridge St", "Cambridge, MA 02139"], "country": "US", "address2": "", "address3": "", "state": "MA", "address1": "1500 Cambridge St", "zip_code": "02139"}}, {"rating": 4.0, "review_count": 63, "name": "sweetgreen", "transactions": [], "url": "https://www.yelp.com/biz/sweetgreen-boston-4?adjust_creative=3-P7Vz57L7f4_vIJv5mr6Q&utm_campaign=yelp_api_v3&utm_medium=api_v3_business_search&utm_source=3-P7Vz57L7f4_vIJv5mr6Q", "price": "$$", "distance": 919.451025612, "coordinates": {"latitude": 42.3484877679796, "longitude": -71.0823976993595}, "phone": "+18577534982", "image_url": "https://s3-media3.fl.yelpcdn.com/bphoto/6Sigzl7dxjSVFbOJv-lthg/o.jpg", "categories": [{"alias": "salad", "title": "Salad"}, {"alias": "vegetarian", "title": "Vegetarian"}], "display_phone": "(857) 753-4982", "id": "sweetgreen-boston-4", "is_closed": false, "location": {"city": "Boston", "display_address": ["800 Boylston St", "Ste 17", "Boston, MA 02199"], "country": "US", "address2": "Ste 17", "address3": "", "state": "MA", "address1": "800 Boylston St", "zip_code": "02199"}}, {"rating": 3.5, "review_count": 36, "name": "sweetgreen", "transactions": [], "url": "https://www.yelp.com/biz/sweetgreen-boston-10?adjust_creative=3-P7Vz57L7f4_vIJv5mr6Q&utm_campaign=yelp_api_v3&utm_medium=api_v3_business_search&utm_source=3-P7Vz57L7f4_vIJv5mr6Q", "price": "$", "distance": 720.1367128088, "coordinates": {"latitude": 42.3450362372592, "longitude": -71.0633501693116}, "phone": "+16177120700", "image_url": "https://s3-media2.fl.yelpcdn.com/bphoto/YegvDluzYq1rthn77MUkJQ/o.jpg", "categories": [{"alias": "salad", "title": "Salad"}, {"alias": "vegetarian", "title": "Vegetarian"}], "display_phone": "(617) 712-0700", "id": "sweetgreen-boston-10", "is_closed": false, "location": {"city": "Boston", "display_address": ["354 Harrison Ave", "Boston, MA 02118"], "country": "US", "address2": null, "address3": null, "state": "MA", "address1": "354 Harrison Ave", "zip_code": "02118"}}, {"rating": 4.0, "review_count": 271, "name": "Martsa On Elm", "transactions": [], "url": "https://www.yelp.com/biz/martsa-on-elm-somerville?adjust_creative=3-P7Vz57L7f4_vIJv5mr6Q&utm_campaign=yelp_api_v3&utm_medium=api_v3_business_search&utm_source=3-P7Vz57L7f4_vIJv5mr6Q", "price": "$$", "distance": 6665.714080619999, "coordinates": {"latitude": 42.3950699, "longitude": -71.12135}, "phone": "+16176660660", "image_url": "https://s3-media1.fl.yelpcdn.com/bphoto/ldtrbsZTJLkSNLesjHO2jw/o.jpg", "categories": [{"alias": "himalayan", "title": "Himalayan/Nepalese"}, {"alias": "vegetarian", "title": "Vegetarian"}], "display_phone": "(617) 666-0660", "id": "martsa-on-elm-somerville", "is_closed": false, "location": {"city": "Somerville", "display_address": ["233 Elm St", "Ste A", "Somerville, MA 02144"], "country": "US", "address2": "Ste A", "address3": "", "state": "MA", "address1": "233 Elm St", "zip_code": "02144"}}, {"rating": 4.5, "review_count": 209, "name": "Whole Heart Provisions", "transactions": ["delivery"], "url": "https://www.yelp.com/biz/whole-heart-provisions-allston?adjust_creative=3-P7Vz57L7f4_vIJv5mr6Q&utm_campaign=yelp_api_v3&utm_medium=api_v3_business_search&utm_source=3-P7Vz57L7f4_vIJv5mr6Q", "price": "$$", "distance": 5465.84489418, "coordinates": {"latitude": 42.353836, "longitude": -71.13726}, "phone": "+16172025041", "image_url": "https://s3-media3.fl.yelpcdn.com/bphoto/hfFxKDoKzsecd-RkSQY2cg/o.jpg", "categories": [{"alias": "vegetarian", "title": "Vegetarian"}, {"alias": "vegan", "title": "Vegan"}, {"alias": "cafes", "title": "Cafes"}], "display_phone": "(617) 202-5041", "id": "whole-heart-provisions-allston", "is_closed": false, "location": {"city": "Allston", "display_address": ["487 Cambridge St", "Allston, MA 02134"], "country": "US", "address2": null, "address3": "", "state": "MA", "address1": "487 Cambridge St", "zip_code": "02134"}}, {"rating": 4.0, "review_count": 322, "name": "Siam Ginger", "transactions": ["delivery", "pickup"], "url": "https://www.yelp.com/biz/siam-ginger-somerville?adjust_creative=3-P7Vz57L7f4_vIJv5mr6Q&utm_campaign=yelp_api_v3&utm_medium=api_v3_business_search&utm_source=3-P7Vz57L7f4_vIJv5mr6Q", "price": "$$", "distance": 4251.098968779999, "coordinates": {"latitude": 42.38084, "longitude": -71.09735}, "phone": "+16176255015", "image_url": "https://s3-media1.fl.yelpcdn.com/bphoto/4jjUiBTP7lXmlJUM1lUN1A/o.jpg", "categories": [{"alias": "thai", "title": "Thai"}, {"alias": "vegetarian", "title": "Vegetarian"}], "display_phone": "(617) 625-5015", "id": "siam-ginger-somerville", "is_closed": false, "location": {"city": "Somerville", "display_address": ["22 Bow St", "Somerville, MA 02143"], "country": "US", "address2": "", "address3": "", "state": "MA", "address1": "22 Bow St", "zip_code": "02143"}}, {"rating": 4.5, "review_count": 106, "name": "Veggie Crust", "transactions": ["delivery", "pickup"], "url": "https://www.yelp.com/biz/veggie-crust-somerville?adjust_creative=3-P7Vz57L7f4_vIJv5mr6Q&utm_campaign=yelp_api_v3&utm_medium=api_v3_business_search&utm_source=3-P7Vz57L7f4_vIJv5mr6Q", "price": "$$", "distance": 4624.527647436, "coordinates": {"latitude": 42.3823024, "longitude": -71.1025207}, "phone": "+16177644605", "image_url": "https://s3-media2.fl.yelpcdn.com/bphoto/B_CNNvrj4zbnB8gZh-z7wQ/o.jpg", "categories": [{"alias": "pizza", "title": "Pizza"}, {"alias": "vegan", "title": "Vegan"}, {"alias": "vegetarian", "title": "Vegetarian"}], "display_phone": "(617) 764-4605", "id": "veggie-crust-somerville", "is_closed": false, "location": {"city": "Somerville", "display_address": ["445 Somerville Ave", "Somerville, MA 02143"], "country": "US", "address2": "", "address3": null, "state": "MA", "address1": "445 Somerville Ave", "zip_code": "02143"}}, {"rating": 4.0, "review_count": 205, "name": "Clover Food Lab - KND", "transactions": [], "url": "https://www.yelp.com/biz/clover-food-lab-knd-cambridge-2?adjust_creative=3-P7Vz57L7f4_vIJv5mr6Q&utm_campaign=yelp_api_v3&utm_medium=api_v3_business_search&utm_source=3-P7Vz57L7f4_vIJv5mr6Q", "price": "$", "distance": 3834.126538678, "coordinates": {"latitude": 42.365616, "longitude": -71.11123}, "phone": "", "image_url": "https://s3-media1.fl.yelpcdn.com/bphoto/ritOOEkoyg7wrbFyy4ZhyQ/o.jpg", "categories": [{"alias": "vegetarian", "title": "Vegetarian"}, {"alias": "sandwiches", "title": "Sandwiches"}, {"alias": "coffee", "title": "Coffee & Tea"}], "display_phone": "", "id": "clover-food-lab-knd-cambridge-2", "is_closed": false, "location": {"city": "Cambridge", "display_address": ["5 Cambridge Ctr", "Cambridge, MA 02139"], "country": "US", "address2": "", "address3": "", "state": "MA", "address1": "5 Cambridge Ctr", "zip_code": "02139"}}]